[
{"country":"UA","name":"Hurzuf","_id":707860,"coord":{"lon":34.283333,"lat":44.549999}},
{"country":"RU","name":"Novinki","_id":519188,"coord":{"lon":37.666668,"lat":55.683334}},
{"country":"NP","name":"Gorkhā","_id":1283378,"coord":{"lon":84.633331,"lat":28}},
{"country":"IN","name":"State of Haryāna","_id":1270260,"coord":{"lon":76,"lat":29}},
{"country":"UA","name":"Holubynka","_id":708546,"coord":{"lon":33.900002,"lat":44.599998}},
{"country":"NP","name":"Bāgmatī Zone","_id":1283710,"coord":{"lon":85.416664,"lat":28}},
{"country":"RU","name":"Mar’ina Roshcha","_id":529334,"coord":{"lon":37.611111,"lat":55.796391}},
{"country":"IN","name":"Republic of India","_id":1269750,"coord":{"lon":77,"lat":20}},
{"country":"NP","name":"Kathmandu","_id":1283240,"coord":{"lon":85.316666,"lat":27.716667}},
{"country":"UA","name":"Laspi","_id":703363,"coord":{"lon":33.733334,"lat":44.416668}},
{"country":"VE","name":"Merida","_id":3632308,"coord":{"lon":-71.144997,"lat":8.598333}},
{"country":"RU","name":"Vinogradovo","_id":473537,"coord":{"lon":38.545555,"lat":55.423332}},
{"country":"IQ","name":"Qarah Gawl al ‘Ulyā","_id":384848,"coord":{"lon":45.6325,"lat":35.353889}},
{"country":"RU","name":"Cherkizovo","_id":569143,"coord":{"lon":37.728889,"lat":55.800835}},
{"country":"UA","name":"Alupka","_id":713514,"coord":{"lon":34.049999,"lat":44.416668}},
{"country":"DE","name":"Lichtenrade","_id":2878044,"coord":{"lon":13.40637,"lat":52.398441}},
{"country":"RU","name":"Zavety Il’icha","_id":464176,"coord":{"lon":37.849998,"lat":56.049999}},
{"country":"IL","name":"‘Azriqam","_id":295582,"coord":{"lon":34.700001,"lat":31.75}},
{"country":"IN","name":"Ghūra","_id":1271231,"coord":{"lon":79.883331,"lat":24.766666}},
{"country":"UA","name":"Tyuzler","_id":690856,"coord":{"lon":34.083332,"lat":44.466667}},
{"country":"RU","name":"Zaponor’ye","_id":464737,"coord":{"lon":38.861942,"lat":55.639999}},
{"country":"UA","name":"Il’ichëvka","_id":707716,"coord":{"lon":34.383331,"lat":44.666668}},
{"country":"UA","name":"Partyzans’ke","_id":697959,"coord":{"lon":34.083332,"lat":44.833332}},
{"country":"RU","name":"Yurevichi","_id":803611,"coord":{"lon":39.934444,"lat":43.600555}},
{"country":"GE","name":"Gumist’a","_id":614371,"coord":{"lon":40.973888,"lat":43.026943}},
{"country":"GE","name":"Ptitsefabrika","_id":874560,"coord":{"lon":40.290558,"lat":43.183613}},
{"country":"GE","name":"Orekhovo","_id":874652,"coord":{"lon":40.146111,"lat":43.351391}},
{"country":"NG","name":"Birim","_id":2347078,"coord":{"lon":9.997027,"lat":10.062094}},
{"country":"RU","name":"Priiskovyy","_id":2051302,"coord":{"lon":132.822495,"lat":42.819168}},
{"country":"RU","name":"Dzhaga","_id":563692,"coord":{"lon":42.650002,"lat":43.25}},
{"country":"RU","name":"Tret’ya Rota","_id":481725,"coord":{"lon":39.681389,"lat":43.741943}},
{"country":"GB","name":"Ruislip","_id":2638976,"coord":{"lon":-0.42341,"lat":51.573441}},
{"country":"DE","name":"Karow","_id":2892705,"coord":{"lon":13.48117,"lat":52.609039}},
{"country":"DE","name":"Gatow","_id":2922336,"coord":{"lon":13.18285,"lat":52.483238}},
{"country":"ZA","name":"Mkuze","_id":975511,"coord":{"lon":32.038609,"lat":-27.616409}},
{"country":"CN","name":"Lhasa","_id":1280737,"coord":{"lon":91.099998,"lat":29.65}},
{"country":"TR","name":"İstanbul","_id":745042,"coord":{"lon":28.983311,"lat":41.03508}},
{"country":"DO","name":"Mao","_id":3496831,"coord":{"lon":-71.078133,"lat":19.551861}},
{"country":"RU","name":"Russian Federation","_id":2017370,"coord":{"lon":100,"lat":60}},
{"country":"RU","name":"De-Friz","_id":2045761,"coord":{"lon":131.991394,"lat":43.27861}},
{"country":"IN","name":"Rumbak","_id":1257986,"coord":{"lon":77.416664,"lat":34.049999}},
{"country":"RU","name":"Vavibet","_id":476350,"coord":{"lon":34.916668,"lat":67.933334}},
{"country":"PK","name":"Surtagān Chib","_id":1343000,"coord":{"lon":64.656113,"lat":26.474443}},
{"country":"LV","name":"Rīgas Rajons","_id":456169,"coord":{"lon":24.333332,"lat":57}},
{"country":"RU","name":"Verkhneye Shchekotikhino","_id":475279,"coord":{"lon":36.133331,"lat":53}},
{"country":"UA","name":"Bucha","_id":711349,"coord":{"lon":30.366671,"lat":50.583328}},
{"country":"PL","name":"Republic of Poland","_id":798544,"coord":{"lon":20,"lat":52}},
{"country":"PL","name":"Kuchary","_id":3094325,"coord":{"lon":19.383329,"lat":52.150002}},
{"country":"KN","name":"Brumaire","_id":3575514,"coord":{"lon":-62.73333,"lat":17.299999}},
{"country":"JP","name":"Ishikawa-ken","_id":1861387,"coord":{"lon":136.770493,"lat":36.77145}},
{"country":"JP","name":"Matoba","_id":1857578,"coord":{"lon":133.949997,"lat":34.25}},
{"country":"MM","name":"Pya","_id":1299298,"coord":{"lon":95.599998,"lat":21.51667}},
{"country":"BA","name":"Kalanac","_id":3256023,"coord":{"lon":18.78389,"lat":44.86861}},
{"country":"DE","name":"Federal Republic of Germany","_id":2921044,"coord":{"lon":10.5,"lat":51.5}},
{"country":"DE","name":"Land Nordrhein-Westfalen","_id":2861876,"coord":{"lon":7,"lat":51.5}},
{"country":"RU","name":"Mutaykutan","_id":802899,"coord":{"lon":47.660641,"lat":42.818859}},
{"country":"RU","name":"Nalchik","_id":523523,"coord":{"lon":43.618889,"lat":43.498058}},
{"country":"RU","name":"Kolganov","_id":546448,"coord":{"lon":40.066669,"lat":44.366669}},
{"country":"RU","name":"Rybatskiy","_id":500023,"coord":{"lon":44.166389,"lat":44.799171}},
{"country":"AU","name":"Bellara","_id":2207349,"coord":{"lon":153.149597,"lat":-27.063919}},
{"country":"ZA","name":"Bartlett","_id":7870412,"coord":{"lon":28.25263,"lat":-26.17061}},
{"country":"ZA","name":"Rietfontein","_id":961935,"coord":{"lon":29.200001,"lat":-25.5}},
{"country":"NA","name":"Hardap","_id":3371200,"coord":{"lon":17.25,"lat":-24.5}},
{"country":"ZA","name":"Botswana","_id":1016666,"coord":{"lon":30.533331,"lat":-24.33333}},
{"country":"AR","name":"El Destierro","_id":3858204,"coord":{"lon":-62.47662,"lat":-24.1}},
{"country":"US","name":"Jones Crossroads","_id":4070245,"coord":{"lon":-85.484657,"lat":31.21073}},
{"country":"US","name":"Vernon Parish","_id":4344544,"coord":{"lon":-93.183502,"lat":31.11685}},
{"country":"US","name":"Pennick","_id":4215307,"coord":{"lon":-81.55899,"lat":31.313}},
{"country":"US","name":"Black Bear Spring","_id":5285039,"coord":{"lon":-110.288139,"lat":31.386209}},
{"country":"US","name":"Bee House","_id":4673179,"coord":{"lon":-98.081139,"lat":31.40266}},
{"country":"CA","name":"Morden","_id":6078447,"coord":{"lon":-98.101357,"lat":49.191898}},
{"country":"FJ","name":"Nasirotu","_id":2201316,"coord":{"lon":178.25,"lat":-18.033331}},
{"country":"ID","name":"Sisali","_id":1938756,"coord":{"lon":124.531387,"lat":-9.19167}},
{"country":"ID","name":"Puntan","_id":2009359,"coord":{"lon":110.553329,"lat":-7.51944}},
{"country":"CG","name":"Tsiémé-Mandiélé","_id":2566086,"coord":{"lon":15.2875,"lat":-4.22694}},
{"country":"TZ","name":"Masama","_id":154733,"coord":{"lon":37.183331,"lat":-3.23333}},
{"country":"ID","name":"Purukcahu","_id":1630349,"coord":{"lon":114.583328,"lat":-0.58333}},
{"country":"CM","name":"Néméyong II","_id":2224928,"coord":{"lon":13.5,"lat":2.91667}},
{"country":"ID","name":"Pondok Genteng","_id":6716279,"coord":{"lon":99.0709,"lat":3.2245}},
{"country":"CF","name":"Mbongoté","_id":2384618,"coord":{"lon":18.283331,"lat":4.25}},
{"country":"SS","name":"Amiling","_id":378867,"coord":{"lon":32.355831,"lat":4.19417}},
{"country":"CM","name":"Kélkoto","_id":2230362,"coord":{"lon":11.16667,"lat":4.43333}},
{"country":"ET","name":"Angetu","_id":343846,"coord":{"lon":39.48333,"lat":6.33333}},
{"country":"SD","name":"Massa","_id":370366,"coord":{"lon":29.466669,"lat":10.98333}},
{"country":"SD","name":"Tumko","_id":365618,"coord":{"lon":24.6,"lat":12.01667}},
{"country":"RU","name":"Moskva","_id":524894,"coord":{"lon":37.606667,"lat":55.761665}},
{"country":"JP","name":"Japan","_id":1861060,"coord":{"lon":139.753098,"lat":35.68536}},
{"country":"JP","name":"Hokkaidō","_id":2130037,"coord":{"lon":141.346603,"lat":43.06451}},
{"country":"ID","name":"Sanggrahan","_id":6199126,"coord":{"lon":110.246109,"lat":-7.46056}},
{"country":"ID","name":"Karangmangle","_id":6388445,"coord":{"lon":109.0075,"lat":-7.43028}},
{"country":"RU","name":"Sheremetyevskiy","_id":494806,"coord":{"lon":37.491112,"lat":55.98}},
{"country":"RU","name":"Yershovo","_id":467104,"coord":{"lon":36.858055,"lat":55.771111}},
{"country":"RU","name":"Znamenka","_id":462352,"coord":{"lon":35.981392,"lat":52.896671}},
{"country":"PT","name":"Lisbon","_id":2267057,"coord":{"lon":-9.13333,"lat":38.716671}},
{"country":"PL","name":"Walbrzych","_id":3082707,"coord":{"lon":16.284321,"lat":50.771412}},
{"country":"PL","name":"Naklo nad Notecia","_id":3091150,"coord":{"lon":17.60181,"lat":53.142139}},
{"country":"CN","name":"Zhengzhou","_id":1784658,"coord":{"lon":113.648613,"lat":34.757778}},
{"country":"GB","name":"Tonyrefail","_id":7301040,"coord":{"lon":-3.41503,"lat":51.580238}},
{"country":"IN","name":"Bankra","_id":1348747,"coord":{"lon":88.298058,"lat":22.627501}},
{"country":"RU","name":"Moskovskaya Oblast’","_id":524925,"coord":{"lon":37.628334,"lat":55.75639}},
{"country":"US","name":"Provo","_id":4047656,"coord":{"lon":-94.107697,"lat":34.037609}},
{"country":"US","name":"Tejon","_id":5493998,"coord":{"lon":-105.28611,"lat":34.58979}},
{"country":"UZ","name":"Guliston","_id":1463749,"coord":{"lon":65.518929,"lat":38.510029}},
{"country":"TR","name":"Ciciler","_id":749184,"coord":{"lon":30.063601,"lat":40.442982}},
{"country":"TR","name":"Bilmece","_id":750594,"coord":{"lon":36.150002,"lat":41.150002}},
{"country":"ES","name":"Provincia de Pontevedra","_id":3113208,"coord":{"lon":-8.5,"lat":42.5}},
{"country":"GB","name":"Carmarthenshire","_id":2653753,"coord":{"lon":-4.16667,"lat":51.833328}},
{"country":"FI","name":"Helsinki","_id":658226,"coord":{"lon":24.93417,"lat":60.17556}},
{"country":"NL","name":"Gemeente Wervershoof","_id":2744819,"coord":{"lon":5.13333,"lat":52.716671}},
{"country":"FR","name":"Forville","_id":3017680,"coord":{"lon":6.6239,"lat":44.913849}},
{"country":"IQ","name":"Tall ‘Alāwī","_id":448961,"coord":{"lon":44.552891,"lat":31.59358}},
{"country":"FR","name":"La Portanière","_id":3007202,"coord":{"lon":6.17341,"lat":43.248611}},
{"country":"GB","name":"East Portlemouth","_id":2650353,"coord":{"lon":-3.75578,"lat":50.232159}},
{"country":"AU","name":"Whyalla","_id":2058430,"coord":{"lon":137.583328,"lat":-33.033329}},
{"country":"NZ","name":"Terrace End","_id":2181258,"coord":{"lon":175.616669,"lat":-40.349998}},
{"country":"JP","name":"Hashimoto","_id":2130135,"coord":{"lon":140.75,"lat":40.816669}},
{"country":"JP","name":"Tsukuba-kenkyūgakuen-toshi","_id":2110681,"coord":{"lon":140.116669,"lat":36.083328}},
{"country":"JP","name":"Higashi-asahimachi","_id":1862845,"coord":{"lon":133.066666,"lat":35.466671}},
{"country":"JP","name":"Hanabatachō","_id":1863250,"coord":{"lon":130.699997,"lat":32.799999}},
{"country":"JP","name":"Senzaki","_id":1852699,"coord":{"lon":131.199997,"lat":34.383331}},
{"country":"JP","name":"Sakaki","_id":1853163,"coord":{"lon":138.183334,"lat":36.466671}},
{"country":"JP","name":"Daisen","_id":1864427,"coord":{"lon":133.533325,"lat":35.383331}},
{"country":"JP","name":"Ikaruga","_id":1861816,"coord":{"lon":134.583328,"lat":34.833328}},
{"country":"JP","name":"Matsuzaki","_id":1857451,"coord":{"lon":138.783325,"lat":34.75}},
{"country":"JP","name":"Noboribetsu","_id":2128894,"coord":{"lon":141.173065,"lat":42.451389}},
{"country":"IT","name":"Grandate","_id":3175936,"coord":{"lon":9.05784,"lat":45.775181}},
{"country":"IT","name":"Biella","_id":6539582,"coord":{"lon":8.05002,"lat":45.55986}},
{"country":"IT","name":"Soverato","_id":6542288,"coord":{"lon":16.54991,"lat":38.684978}},
{"country":"IT","name":"Pinerolo","_id":6540662,"coord":{"lon":7.33312,"lat":44.883942}},
{"country":"GB","name":"Dundee City","_id":3333225,"coord":{"lon":-2.91667,"lat":56.466671}},
{"country":"GB","name":"Nuneaton and Bedworth District","_id":7290647,"coord":{"lon":-1.47802,"lat":52.500641}},
{"country":"GB","name":"Rhyl","_id":7291924,"coord":{"lon":-3.47247,"lat":53.31905}},
{"country":"GB","name":"Foulridge","_id":2649140,"coord":{"lon":-2.16864,"lat":53.87579}},
{"country":"GB","name":"Hermitage","_id":2647062,"coord":{"lon":-1.26823,"lat":51.455399}},
{"country":"GB","name":"Golcar","_id":2648355,"coord":{"lon":-1.8557,"lat":53.639919}},
{"country":"GB","name":"Thornbury","_id":2636001,"coord":{"lon":-2.55,"lat":52.23333}},
{"country":"RU","name":"Peterhof","_id":510291,"coord":{"lon":29.9,"lat":59.883331}},
{"country":"RU","name":"Grebnevo","_id":518858,"coord":{"lon":38.072777,"lat":55.961945}},
{"country":"CU","name":"Centro Habana","_id":3746183,"coord":{"lon":-82.364166,"lat":23.13833}},
{"country":"ZA","name":"Carolina","_id":1014012,"coord":{"lon":30.114889,"lat":-26.069269}},
{"country":"BL","name":"Gustavia","_id":3579132,"coord":{"lon":-62.849781,"lat":17.896179}},
{"country":"CN","name":"Xianju","_id":1790413,"coord":{"lon":120.73333,"lat":28.85}},
{"country":"JP","name":"Tōkyō-to","_id":1850144,"coord":{"lon":139.691711,"lat":35.689499}},
{"country":"US","name":"Washington","_id":5815135,"coord":{"lon":-120.501472,"lat":47.500118}},
{"country":"US","name":"San Dimas","_id":5391891,"coord":{"lon":-117.806732,"lat":34.106682}},
{"country":"AZ","name":"Culfa","_id":148251,"coord":{"lon":45.630798,"lat":38.955799}},
{"country":"IR","name":"Bandar Emām Khomeynī","_id":141668,"coord":{"lon":49.076279,"lat":30.429831}},
{"country":"IR","name":"Shāhrūd","_id":66108,"coord":{"lon":55.01667,"lat":36.416672}},
{"country":"SL","name":"Bo","_id":2410048,"coord":{"lon":-11.73833,"lat":7.96472}},
{"country":"KM","name":"Daché","_id":1092342,"coord":{"lon":43.251389,"lat":-11.7125}},
{"country":"HT","name":"Département de l'Ouest","_id":3719432,"coord":{"lon":-72.291412,"lat":18.663811}},
{"country":"IT","name":"Montescudo","_id":6538016,"coord":{"lon":12.54295,"lat":43.91946}},
{"country":"AR","name":"San Pedro","_id":3428577,"coord":{"lon":-54.108421,"lat":-26.62207}},
{"country":"AT","name":"Wels(Stadt)","_id":7871309,"coord":{"lon":14.02164,"lat":48.16082}},
{"country":"AU","name":"Palmerston","_id":7839407,"coord":{"lon":130.977966,"lat":-12.4962}},
{"country":"AZ","name":"Telmankend","_id":147059,"coord":{"lon":48.399021,"lat":39.87867}},
{"country":"AZ","name":"Neftcala","_id":147425,"coord":{"lon":49.247219,"lat":39.374168}},
{"country":"AZ","name":"Pushkino","_id":148340,"coord":{"lon":48.544998,"lat":39.458328}},
{"country":"BE","name":"Visé","_id":2784549,"coord":{"lon":5.7019,"lat":50.738628}},
{"country":"BE","name":"Lede","_id":2793079,"coord":{"lon":3.94544,"lat":50.962582}},
{"country":"BE","name":"Ieper","_id":2795101,"coord":{"lon":2.86733,"lat":50.85704}},
{"country":"BF","name":"Titao","_id":2354349,"coord":{"lon":-2.06667,"lat":13.76667}},
{"country":"BF","name":"Cascades","_id":6930703,"coord":{"lon":-4.76292,"lat":10.65015}},
{"country":"BO","name":"Villazon","_id":3901501,"coord":{"lon":-65.594223,"lat":-22.08659}},
{"country":"CA","name":"Laval","_id":6050612,"coord":{"lon":-73.749184,"lat":45.583382}},
{"country":"CD","name":"Yangambi","_id":203717,"coord":{"lon":24.43359,"lat":0.81021}},
{"country":"CD","name":"Watsa","_id":204283,"coord":{"lon":29.535509,"lat":3.03716}},
{"country":"CD","name":"Wamba","_id":204318,"coord":{"lon":27.994659,"lat":2.14838}},
{"country":"CD","name":"Lusambo","_id":210379,"coord":{"lon":23.450001,"lat":-4.96667}},
{"country":"CD","name":"Luebo","_id":210939,"coord":{"lon":21.41667,"lat":-5.35}},
{"country":"CD","name":"Lubao","_id":211098,"coord":{"lon":25.75,"lat":-5.36667}},
{"country":"CD","name":"Kampene","_id":214575,"coord":{"lon":26.66667,"lat":-3.6}},
{"country":"CD","name":"Kabinda","_id":215527,"coord":{"lon":24.48333,"lat":-6.13333}},
{"country":"CD","name":"Kabare","_id":215605,"coord":{"lon":28.824169,"lat":-2.46833}},
{"country":"CD","name":"Businga","_id":217637,"coord":{"lon":20.883329,"lat":3.33333}},
{"country":"CD","name":"Nioki","_id":2311968,"coord":{"lon":17.683331,"lat":-2.71667}},
{"country":"CD","name":"Mushie","_id":2312249,"coord":{"lon":16.9,"lat":-3.01667}},
{"country":"CD","name":"Mangai","_id":2313084,"coord":{"lon":19.533331,"lat":-4.05}},
{"country":"CD","name":"Ville de Kinshasa","_id":2314300,"coord":{"lon":15.5,"lat":-4.5}},
{"country":"CH","name":"Luzern","_id":7286409,"coord":{"lon":8.32518,"lat":47.047138}},
{"country":"CH","name":"Fahrweid (südl. Teil)","_id":6295429,"coord":{"lon":8.41367,"lat":47.408138}},
{"country":"CH","name":"Riehen","_id":7286907,"coord":{"lon":7.65117,"lat":47.579418}},
{"country":"CH","name":"Bärenbohl","_id":6291739,"coord":{"lon":8.51832,"lat":47.434929}},
{"country":"CH","name":"Letten","_id":6295642,"coord":{"lon":8.53458,"lat":47.32811}},
{"country":"CI","name":"Touba","_id":2280376,"coord":{"lon":-7.68333,"lat":8.28333}},
{"country":"CM","name":"Tonga","_id":2221394,"coord":{"lon":10.7,"lat":4.96667}},
{"country":"CZ","name":"Lahovičky","_id":3072342,"coord":{"lon":14.39698,"lat":50.001339}},
{"country":"CZ","name":"Svépravice","_id":3064531,"coord":{"lon":14.6131,"lat":50.100712}},
{"country":"DE","name":"Wardenburg","_id":6547426,"coord":{"lon":8.19785,"lat":53.062222}},
{"country":"DE","name":"Wachtberg","_id":6553084,"coord":{"lon":7.1259,"lat":50.6213}},
{"country":"DE","name":"Schwalmtal","_id":2835344,"coord":{"lon":6.26667,"lat":51.216671}},
{"country":"DE","name":"Pfaffenhofen an der Ilm","_id":7602475,"coord":{"lon":11.502,"lat":48.528431}},
{"country":"DE","name":"Odenthal","_id":6553078,"coord":{"lon":7.1182,"lat":51.034801}},
{"country":"DE","name":"Much","_id":6553081,"coord":{"lon":7.3537,"lat":50.874699}},
{"country":"DE","name":"Großstädteln","_id":2915013,"coord":{"lon":12.38333,"lat":51.26667}},
{"country":"DE","name":"Lindlar","_id":6553073,"coord":{"lon":7.3665,"lat":51.033199}},
{"country":"DE","name":"Kreuzau","_id":6553056,"coord":{"lon":6.4771,"lat":50.729401}},
{"country":"DE","name":"Höxter, Stadt","_id":6557629,"coord":{"lon":9.39737,"lat":51.796371}},
{"country":"DE","name":"Kreis Unna","_id":2820086,"coord":{"lon":7.7175,"lat":51.568611}},
{"country":"DE","name":"Hille","_id":6553128,"coord":{"lon":8.7722,"lat":52.330898}},
{"country":"DE","name":"Haar","_id":6556314,"coord":{"lon":11.7333,"lat":48.099998}},
{"country":"DE","name":"Grossenhain","_id":2916630,"coord":{"lon":13.55,"lat":51.283329}},
{"country":"DE","name":"Ginsheim-Gustavsburg","_id":6553174,"coord":{"lon":8.3425,"lat":49.985802}},
{"country":"DE","name":"Engelskirchen","_id":6553072,"coord":{"lon":7.4,"lat":50.983299}},
{"country":"DE","name":"Eggenstein-Leopoldshafen","_id":6555618,"coord":{"lon":8.39056,"lat":49.095299}},
{"country":"DE","name":"Brüggen","_id":6553040,"coord":{"lon":6.1886,"lat":51.2379}},
{"country":"DE","name":"Bönen","_id":2957818,"coord":{"lon":7.76667,"lat":51.583328}},
{"country":"DE","name":"Kreisfreie Stadt Bielefeld","_id":3221125,"coord":{"lon":8.55861,"lat":52.017502}},
{"country":"DE","name":"Bielefeld","_id":2949188,"coord":{"lon":8.5,"lat":52}},
{"country":"DE","name":"Baiersbronn","_id":6555717,"coord":{"lon":8.3495,"lat":48.515499}},
{"country":"DE","name":"Bad Zwischenahn","_id":6552854,"coord":{"lon":8.04142,"lat":53.1717}},
{"country":"DE","name":"Bad Honnef, Stadt","_id":6557561,"coord":{"lon":7.26114,"lat":50.647579}},
{"country":"DE","name":"Ascheberg","_id":6553094,"coord":{"lon":7.61667,"lat":51.783298}},
{"country":"DE","name":"Ostfildern","_id":2856307,"coord":{"lon":9.25143,"lat":48.7267}},
{"country":"DE","name":"Spremberg, Stadt","_id":7602483,"coord":{"lon":14.37355,"lat":51.56971}},
{"country":"DK","name":"Høje-Taastrup Kommune","_id":6543938,"coord":{"lon":12.24854,"lat":55.656429}},
{"country":"DK","name":"Nyborg Kommune","_id":2616011,"coord":{"lon":10.75,"lat":55.333328}},
{"country":"DK","name":"Kolding Kommune","_id":2618525,"coord":{"lon":9.46667,"lat":55.533329}},
{"country":"DO","name":"Neiba","_id":3495858,"coord":{"lon":-71.416672,"lat":18.5}},
{"country":"DO","name":"Moca","_id":3496332,"coord":{"lon":-70.5,"lat":19.5}},
{"country":"DZ","name":"el hed","_id":2476412,"coord":{"lon":4.77361,"lat":36.650002}},
{"country":"DZ","name":"Souma","_id":2479183,"coord":{"lon":2.90528,"lat":36.51833}},
{"country":"DZ","name":"Rouached","_id":2482939,"coord":{"lon":6.04267,"lat":36.457741}},
{"country":"DZ","name":"Reggane","_id":2483761,"coord":{"lon":0.1714,"lat":26.715759}},
{"country":"DZ","name":"Metlili Chaamba","_id":2487620,"coord":{"lon":3.63333,"lat":32.26667}},
{"country":"DZ","name":"El Abiodh Sidi Cheikh","_id":2498775,"coord":{"lon":0.54839,"lat":32.893002}},
{"country":"ES","name":"Osuna","_id":6361023,"coord":{"lon":-5.11371,"lat":37.22229}},
{"country":"ES","name":"Lora del Río","_id":6361010,"coord":{"lon":-5.48845,"lat":37.660149}},
{"country":"ES","name":"Fuengirola","_id":6359459,"coord":{"lon":-4.61206,"lat":36.551491}},
{"country":"ES","name":"Bailén","_id":6358465,"coord":{"lon":-3.78418,"lat":38.080231}},
{"country":"ES","name":"Utebo","_id":6362958,"coord":{"lon":-1.00454,"lat":41.715591}},
{"country":"ES","name":"Barberà del Vallès","_id":6356273,"coord":{"lon":2.13201,"lat":41.517361}},
{"country":"ES","name":"Pinto","_id":6359334,"coord":{"lon":-3.68321,"lat":40.258942}},
{"country":"ES","name":"Pineda de Mar","_id":6533993,"coord":{"lon":2.66524,"lat":41.636478}},
{"country":"ES","name":"Palamós","_id":6534092,"coord":{"lon":3.14432,"lat":41.860611}},
{"country":"ES","name":"Navalcarnero","_id":6359320,"coord":{"lon":-3.99743,"lat":40.282101}},
{"country":"ES","name":"Mejorada del Campo","_id":6359308,"coord":{"lon":-3.47564,"lat":40.402061}},
{"country":"ES","name":"Manlleu","_id":6356141,"coord":{"lon":2.28035,"lat":41.999298}},
{"country":"ES","name":"Leganés","_id":6359300,"coord":{"lon":-3.77931,"lat":40.327358}},
{"country":"ES","name":"Laguna de Duero","_id":6362203,"coord":{"lon":-4.72002,"lat":41.56963}},
{"country":"ES","name":"Coruña (A)","_id":6357300,"coord":{"lon":-8.4188,"lat":43.371262}},
{"country":"ES","name":"Illescas","_id":6361741,"coord":{"lon":-3.85713,"lat":40.135811}},
{"country":"ES","name":"la Roca del Vallès","_id":6356206,"coord":{"lon":2.32741,"lat":41.601181}},
{"country":"ES","name":"Ermua","_id":6362379,"coord":{"lon":-2.50305,"lat":43.18774}},
{"country":"ES","name":"Eibar","_id":6358120,"coord":{"lon":-2.46165,"lat":43.19978}},
{"country":"ES","name":"Durango","_id":6362372,"coord":{"lon":-2.6498,"lat":43.16481}},
{"country":"ES","name":"Collado Villalba","_id":6359273,"coord":{"lon":-3.99052,"lat":40.642971}},
{"country":"ES","name":"Ciempozuelos","_id":6359266,"coord":{"lon":-3.6001,"lat":40.153599}},
{"country":"ES","name":"Caldes de Montbui","_id":6356068,"coord":{"lon":2.14934,"lat":41.65057}},
{"country":"ES","name":"Calahorra","_id":6359026,"coord":{"lon":-1.95262,"lat":42.307869}},
{"country":"ES","name":"Benicasim\/Benicàssim","_id":6356985,"coord":{"lon":0.06334,"lat":40.052799}},
{"country":"ES","name":"Realejos (Los)","_id":6360635,"coord":{"lon":-16.59104,"lat":28.381981}},
{"country":"ES","name":"Basauri","_id":3128528,"coord":{"lon":-2.88271,"lat":43.234821}},
{"country":"ES","name":"Lobras","_id":6357735,"coord":{"lon":-3.20859,"lat":36.90868}},
{"country":"ET","name":"Robit","_id":329586,"coord":{"lon":39.633331,"lat":12.01667}},
{"country":"ET","name":"Mekele","_id":331180,"coord":{"lon":39.475281,"lat":13.49667}},
{"country":"ET","name":"Kolito","_id":332880,"coord":{"lon":38.083328,"lat":7.31667}},
{"country":"FJ","name":"Lambasa","_id":2204582,"coord":{"lon":179.383331,"lat":-16.41667}},
{"country":"FM","name":"Sokehs Municipality","_id":7626930,"coord":{"lon":158.1427,"lat":6.93273}},
{"country":"FR","name":"Wittenheim","_id":6441676,"coord":{"lon":7.33333,"lat":47.816669}},
{"country":"FR","name":"Wattrelos","_id":6438569,"coord":{"lon":3.21667,"lat":50.700001}},
{"country":"FR","name":"Vitré","_id":6454050,"coord":{"lon":-1.2,"lat":48.133331}},
{"country":"FR","name":"Viry-Châtillon","_id":6446231,"coord":{"lon":2.38333,"lat":48.666672}},
{"country":"FR","name":"Villeneuve-le-Roi","_id":6452039,"coord":{"lon":2.41667,"lat":48.73333}},
{"country":"FR","name":"Vierzon","_id":6453748,"coord":{"lon":2.08333,"lat":47.216671}},
{"country":"FR","name":"Verrières-le-Buisson","_id":6446218,"coord":{"lon":2.26667,"lat":48.75}},
{"country":"FR","name":"Arrondissement d'Antony","_id":6457368,"coord":{"lon":2.3006,"lat":48.7617}},
{"country":"FR","name":"Vallauris","_id":6425695,"coord":{"lon":7.05,"lat":43.583328}},
{"country":"FR","name":"Tourcoing","_id":6438526,"coord":{"lon":3.15,"lat":50.716671}},
{"country":"FR","name":"Taverny","_id":6446342,"coord":{"lon":2.21667,"lat":49.033329}},
{"country":"FR","name":"Soisy-sous-Montmorency","_id":6446340,"coord":{"lon":2.3,"lat":48.98333}},
{"country":"FR","name":"Sin-le-Noble","_id":6438498,"coord":{"lon":3.11667,"lat":50.366669}},
{"country":"FR","name":"Sèvres","_id":6451981,"coord":{"lon":2.2,"lat":48.816669}},
{"country":"FR","name":"Salon-de-Provence","_id":6427088,"coord":{"lon":5.1,"lat":43.633331}},
{"country":"FR","name":"Saint-Ouen","_id":6455342,"coord":{"lon":2.33333,"lat":48.900002}},
{"country":"FR","name":"Saint-Fons","_id":6441760,"coord":{"lon":4.86667,"lat":45.700001}},
{"country":"FR","name":"Saint-Avold","_id":6454369,"coord":{"lon":6.7,"lat":49.099998}},
{"country":"FR","name":"Rezé","_id":6454153,"coord":{"lon":-1.56667,"lat":47.200001}},
{"country":"FR","name":"Pontivy","_id":6454341,"coord":{"lon":-2.98333,"lat":48.066669}},
{"country":"FR","name":"Pessac","_id":6454014,"coord":{"lon":-0.61667,"lat":44.799999}},
{"country":"FR","name":"Palaiseau","_id":6446184,"coord":{"lon":2.25,"lat":48.716671}},
{"country":"FR","name":"Ozoir-la-Ferrière","_id":6443784,"coord":{"lon":2.66667,"lat":48.76667}},
{"country":"FR","name":"Oullins","_id":6441724,"coord":{"lon":4.8,"lat":45.716671}},
{"country":"FR","name":"Mougins","_id":6446721,"coord":{"lon":7,"lat":43.599998}},
{"country":"FR","name":"Morsang-sur-Orge","_id":6446177,"coord":{"lon":2.35,"lat":48.666672}},
{"country":"FR","name":"Montélimar","_id":6430140,"coord":{"lon":4.75,"lat":44.566669}},
{"country":"FR","name":"Montbéliard","_id":6453858,"coord":{"lon":6.8,"lat":47.51667}},
{"country":"FR","name":"Maisons-Alfort","_id":6452024,"coord":{"lon":2.43333,"lat":48.799999}},
{"country":"FR","name":"Louviers","_id":6430468,"coord":{"lon":1.16667,"lat":49.216671}},
{"country":"FR","name":"Limeil-Brévannes","_id":6452023,"coord":{"lon":2.4893,"lat":48.7467}},
{"country":"FR","name":"Les Pavillons-sous-Bois","_id":6457185,"coord":{"lon":2.51667,"lat":48.900002}},
{"country":"FR","name":"Lattes","_id":6432528,"coord":{"lon":3.9,"lat":43.566669}},
{"country":"FR","name":"Grigny","_id":6446146,"coord":{"lon":2.39382,"lat":48.653931}},
{"country":"FR","name":"Goussainville","_id":6446274,"coord":{"lon":2.474,"lat":49.032001}},
{"country":"FR","name":"Gien","_id":6454157,"coord":{"lon":2.6297,"lat":47.689201}},
{"country":"FR","name":"Gagny","_id":6451993,"coord":{"lon":2.53333,"lat":48.883331}},
{"country":"FR","name":"Firminy","_id":6455107,"coord":{"lon":4.3,"lat":45.383331}},
{"country":"FR","name":"Échirolles","_id":6433192,"coord":{"lon":5.71667,"lat":45.133331}},
{"country":"FR","name":"Décines-Charpieu","_id":6441821,"coord":{"lon":4.9598,"lat":45.7686}},
{"country":"FR","name":"Dammarie-les-Lys","_id":6455404,"coord":{"lon":2.65,"lat":48.51667}},
{"country":"FR","name":"Colombes","_id":6455339,"coord":{"lon":2.25,"lat":48.916672}},
{"country":"FR","name":"Cognac","_id":6453697,"coord":{"lon":-0.33333,"lat":45.700001}},
{"country":"FR","name":"Chenôve","_id":6428545,"coord":{"lon":5,"lat":47.283329}},
{"country":"FR","name":"Chelles","_id":6443604,"coord":{"lon":2.6,"lat":48.883331}},
{"country":"FR","name":"Cesson-Sévigné","_id":6618272,"coord":{"lon":-1.603,"lat":48.121201}},
{"country":"FR","name":"Cayenne","_id":3028097,"coord":{"lon":1.62803,"lat":49.558578}},
{"country":"FR","name":"Carvin","_id":6439436,"coord":{"lon":2.96667,"lat":50.48333}},
{"country":"FR","name":"Bonneuil-sur-Marne","_id":6452010,"coord":{"lon":2.48333,"lat":48.76667}},
{"country":"FR","name":"Belfort","_id":6455331,"coord":{"lon":6.86667,"lat":47.633331}},
{"country":"FR","name":"Bayeux","_id":6447202,"coord":{"lon":-0.703,"lat":49.278599}},
{"country":"FR","name":"Bagnolet","_id":6613166,"coord":{"lon":2.41667,"lat":48.866669}},
{"country":"FR","name":"Autun","_id":6450845,"coord":{"lon":4.3,"lat":46.950001}},
{"country":"FR","name":"Auch","_id":6448311,"coord":{"lon":0.58333,"lat":43.650002}},
{"country":"FR","name":"Annecy-le-Vieux","_id":6451006,"coord":{"lon":6.15,"lat":45.916672}},
{"country":"FR","name":"Alfortville","_id":6452610,"coord":{"lon":2.41667,"lat":48.799999}},
{"country":"FR","name":"Les Ulis","_id":6455394,"coord":{"lon":2.16932,"lat":48.68174}},
{"country":"GB","name":"Yate","_id":7300065,"coord":{"lon":-2.40944,"lat":51.54805}},
{"country":"GB","name":"Caia Park","_id":7292818,"coord":{"lon":-2.97767,"lat":53.045219}},
{"country":"GB","name":"Worcester District","_id":7290657,"coord":{"lon":-2.20886,"lat":52.196121}},
{"country":"GB","name":"Borough of Wolverhampton","_id":3333222,"coord":{"lon":-2.11667,"lat":52.583328}},
{"country":"GB","name":"Winsford","_id":7299965,"coord":{"lon":-2.52331,"lat":53.19191}},
{"country":"GB","name":"Welwyn Hatfield","_id":2634551,"coord":{"lon":-0.21667,"lat":51.75}},
{"country":"GB","name":"Borough of Trafford","_id":3333211,"coord":{"lon":-2.33333,"lat":53.416672}},
{"country":"GB","name":"Tamworth District","_id":7290632,"coord":{"lon":-1.6829,"lat":52.62273}},
{"country":"GB","name":"Wroughton","_id":7291961,"coord":{"lon":-1.8056,"lat":51.517849}},
{"country":"GB","name":"Dartford District","_id":7290571,"coord":{"lon":0.24851,"lat":51.43388}},
{"country":"GB","name":"South Derbyshire District","_id":7290673,"coord":{"lon":-1.53296,"lat":52.821999}},
{"country":"GB","name":"Borough of Tameside","_id":3333208,"coord":{"lon":-2.08333,"lat":53.5}},
{"country":"GB","name":"Mossley","_id":7291795,"coord":{"lon":-2.02418,"lat":53.516338}},
{"country":"GB","name":"Seaham","_id":7294483,"coord":{"lon":-1.34838,"lat":54.8391}},
{"country":"GB","name":"Sandown","_id":7295275,"coord":{"lon":-1.14195,"lat":50.661251}},
{"country":"GB","name":"Ryton","_id":7297739,"coord":{"lon":-2.35315,"lat":52.624569}},
{"country":"GB","name":"Redditch District","_id":7290656,"coord":{"lon":-1.94565,"lat":52.279331}},
{"country":"GB","name":"Prestatyn","_id":7294048,"coord":{"lon":-3.40514,"lat":53.334641}},
{"country":"GB","name":"Peterlee","_id":7294693,"coord":{"lon":-1.32905,"lat":54.758461}},
{"country":"GB","name":"Penarth","_id":7301708,"coord":{"lon":-3.18138,"lat":51.43095}},
{"country":"GB","name":"Oswestry","_id":7292284,"coord":{"lon":-3.05832,"lat":52.857101}},
{"country":"GB","name":"Northwich","_id":7294581,"coord":{"lon":-2.51575,"lat":53.255798}},
{"country":"GB","name":"Ards District","_id":2657122,"coord":{"lon":-5.58333,"lat":54.5}},
{"country":"GB","name":"Newtownards","_id":2641519,"coord":{"lon":-5.69092,"lat":54.592361}},
{"country":"GB","name":"Newquay","_id":7300025,"coord":{"lon":-5.07426,"lat":50.424091}},
{"country":"GB","name":"Nailsea","_id":7298888,"coord":{"lon":-2.77756,"lat":51.424}},
{"country":"GB","name":"Morley","_id":7293862,"coord":{"lon":-1.6034,"lat":53.742901}},
{"country":"GB","name":"Mirfield","_id":7293814,"coord":{"lon":-1.69404,"lat":53.673901}},
{"country":"GB","name":"Maesteg","_id":7291605,"coord":{"lon":-3.64713,"lat":51.61528}},
{"country":"GB","name":"Sutton","_id":7296039,"coord":{"lon":-2.0931,"lat":53.227161}},
{"country":"GB","name":"City of Westminster","_id":3333218,"coord":{"lon":-0.16667,"lat":51.5}},
{"country":"GB","name":"Sefton","_id":7295996,"coord":{"lon":-2.97287,"lat":53.50441}},
{"country":"GB","name":"East Dunbartonshire","_id":3333227,"coord":{"lon":-4.2,"lat":55.933331}},
{"country":"GB","name":"East Ayrshire","_id":3333226,"coord":{"lon":-4.25,"lat":55.5}},
{"country":"GB","name":"Keynsham","_id":7296076,"coord":{"lon":-2.49775,"lat":51.41251}},
{"country":"GB","name":"Kempston","_id":7301693,"coord":{"lon":-0.49955,"lat":52.116791}},
{"country":"GB","name":"Horwich","_id":7299757,"coord":{"lon":-2.52379,"lat":53.603069}},
{"country":"GB","name":"Dacorum District","_id":7290564,"coord":{"lon":-0.57377,"lat":51.768509}},
{"country":"GB","name":"Hastings District","_id":7290687,"coord":{"lon":0.58145,"lat":50.867279}},
{"country":"GB","name":"Guisborough","_id":7291323,"coord":{"lon":-1.07738,"lat":54.535629}},
{"country":"GB","name":"Great Yarmouth District","_id":7290595,"coord":{"lon":1.6469,"lat":52.633961}},
{"country":"GB","name":"South Staffordshire District","_id":7290630,"coord":{"lon":-2.15319,"lat":52.604481}},
{"country":"GB","name":"Goole","_id":7296623,"coord":{"lon":-0.87588,"lat":53.70216}},
{"country":"GB","name":"Fareham District","_id":7290556,"coord":{"lon":-1.21114,"lat":50.8535}},
{"country":"GB","name":"Epsom and Ewell District","_id":7290639,"coord":{"lon":-0.26017,"lat":51.335732}},
{"country":"GB","name":"Runnymede District","_id":7290641,"coord":{"lon":-0.53722,"lat":51.394421}},
{"country":"GB","name":"Ebbw Vale","_id":7300545,"coord":{"lon":-3.20482,"lat":51.77298}},
{"country":"GB","name":"Broxtowe District","_id":7290615,"coord":{"lon":-1.25781,"lat":52.973049}},
{"country":"GB","name":"Dunstable","_id":7296192,"coord":{"lon":-0.5173,"lat":51.884651}},
{"country":"GB","name":"City of Derby","_id":3333142,"coord":{"lon":-1.47217,"lat":52.9207}},
{"country":"GB","name":"Eccleshill","_id":7300542,"coord":{"lon":-2.4517,"lat":53.706779}},
{"country":"GB","name":"Cwmbran Central","_id":7291971,"coord":{"lon":-3.02699,"lat":51.641171}},
{"country":"GB","name":"Healeyfield","_id":7300082,"coord":{"lon":-1.8608,"lat":54.830681}},
{"country":"GB","name":"Ribble Valley District","_id":7290582,"coord":{"lon":-2.41624,"lat":53.902439}},
{"country":"GB","name":"Sodbury","_id":7299112,"coord":{"lon":-2.35653,"lat":51.541489}},
{"country":"GB","name":"Brymbo","_id":7296198,"coord":{"lon":-3.08351,"lat":53.074551}},
{"country":"GB","name":"Brixham","_id":7296060,"coord":{"lon":-3.51133,"lat":50.390831}},
{"country":"GB","name":"Bracknell","_id":7296000,"coord":{"lon":-0.75918,"lat":51.406029}},
{"country":"GB","name":"Blyth","_id":7291483,"coord":{"lon":-1.53835,"lat":55.117748}},
{"country":"GB","name":"Biggleswade","_id":7299866,"coord":{"lon":-0.24536,"lat":52.078602}},
{"country":"GB","name":"Berkhamsted","_id":7298694,"coord":{"lon":-0.5578,"lat":51.755138}},
{"country":"GB","name":"Bathampton","_id":7296167,"coord":{"lon":-2.32627,"lat":51.3923}},
{"country":"GB","name":"North Down District","_id":2641376,"coord":{"lon":-5.66667,"lat":54.666672}},
{"country":"GB","name":"Bangor","_id":7298620,"coord":{"lon":-4.13579,"lat":53.222301}},
{"country":"GB","name":"Banbridge District","_id":2656408,"coord":{"lon":-6.16667,"lat":54.333328}},
{"country":"GB","name":"Aberystwyth","_id":7292321,"coord":{"lon":-4.07708,"lat":52.41227}},
{"country":"GB","name":"Chalk Farm","_id":6690583,"coord":{"lon":-0.14987,"lat":51.543129}},
{"country":"GB","name":"East Dorset District","_id":7290681,"coord":{"lon":-1.976,"lat":50.866901}},
{"country":"GE","name":"Poti","_id":612366,"coord":{"lon":41.67197,"lat":42.14616}},
{"country":"GH","name":"Tafo","_id":2294938,"coord":{"lon":-1.61275,"lat":6.73453}},
{"country":"GH","name":"Shama Junction","_id":2295385,"coord":{"lon":-1.63011,"lat":5.00872}},
{"country":"GH","name":"Saltpond","_id":2295672,"coord":{"lon":-1.06058,"lat":5.20913}},
{"country":"GH","name":"Dunkwa","_id":2301400,"coord":{"lon":-1.77995,"lat":5.96562}},
{"country":"GN","name":"Pita","_id":2416443,"coord":{"lon":-12.4,"lat":11.08333}},
{"country":"GP","name":"Sainte-Anne","_id":6690393,"coord":{"lon":-61.366669,"lat":16.23333}},
{"country":"GP","name":"Pointe-à-Pitre","_id":6690399,"coord":{"lon":-61.51667,"lat":16.23333}},
{"country":"GP","name":"Les Abymes","_id":6690387,"coord":{"lon":-61.5,"lat":16.26667}},
{"country":"GP","name":"Le Moule","_id":6690413,"coord":{"lon":-61.333328,"lat":16.33333}},
{"country":"GP","name":"Capesterre-Belle-Eau","_id":6690408,"coord":{"lon":-61.549999,"lat":16.049999}},
{"country":"GR","name":"Dimos Salamis","_id":8133766,"coord":{"lon":23.47966,"lat":37.938259}},
{"country":"GR","name":"Dimos Fyli","_id":8133808,"coord":{"lon":23.668631,"lat":38.12466}},
{"country":"GS","name":"Grytviken","_id":3426466,"coord":{"lon":-36.509201,"lat":-54.281109}},
{"country":"GT","name":"Municipio de San Marcos","_id":3589799,"coord":{"lon":-91.800003,"lat":14.96667}},
{"country":"GT","name":"Municipio de Flores","_id":3595722,"coord":{"lon":-89.897087,"lat":16.923809}},
{"country":"HN","name":"Departamento de Valle","_id":3600456,"coord":{"lon":-87.583328,"lat":13.58333}},
{"country":"HT","name":"Thor","_id":3716661,"coord":{"lon":-72.401382,"lat":18.536461}},
{"country":"HT","name":"Ti Port-de-Paix","_id":3740016,"coord":{"lon":-72.833328,"lat":19.933331}},
{"country":"HU","name":"Csukásitanyák","_id":3053876,"coord":{"lon":19.316669,"lat":47.5}},
{"country":"ID","name":"Tanjungbalai","_id":1213547,"coord":{"lon":99.800003,"lat":2.96667}},
{"country":"ID","name":"Reuleuet","_id":1214055,"coord":{"lon":96.283333,"lat":5.21667}},
{"country":"IL","name":"Judieda Makr","_id":294622,"coord":{"lon":35.154999,"lat":32.92556}},
{"country":"IN","name":"Yeola","_id":1252738,"coord":{"lon":74.48333,"lat":20.033331}},
{"country":"IN","name":"Yellapur","_id":1252744,"coord":{"lon":74.716667,"lat":14.96667}},
{"country":"IN","name":"Yaval","_id":1252773,"coord":{"lon":75.699997,"lat":21.16667}},
{"country":"IT","name":"Ventimiglia","_id":6540553,"coord":{"lon":7.60264,"lat":43.793522}},
{"country":"IT","name":"Savona","_id":6542009,"coord":{"lon":8.47375,"lat":44.30814}},
{"country":"IT","name":"Ruvo di Puglia","_id":6537557,"coord":{"lon":16.48778,"lat":41.113628}},
{"country":"IT","name":"Pioltello","_id":6539485,"coord":{"lon":9.32435,"lat":45.497971}},
{"country":"IT","name":"Palestrina","_id":6536957,"coord":{"lon":12.88899,"lat":41.835522}},
{"country":"IT","name":"Palagiano","_id":6537567,"coord":{"lon":17.037399,"lat":40.57822}},
{"country":"IT","name":"Pagani","_id":6538821,"coord":{"lon":14.61334,"lat":40.751511}},
{"country":"IT","name":"Orta Nova","_id":6541936,"coord":{"lon":15.71066,"lat":41.329929}},
{"country":"IT","name":"Oria","_id":6540026,"coord":{"lon":17.64131,"lat":40.49733}},
{"country":"IT","name":"Noicattaro","_id":6537554,"coord":{"lon":16.98959,"lat":41.033829}},
{"country":"IT","name":"Nettuno","_id":6542044,"coord":{"lon":12.67899,"lat":41.482609}},
{"country":"IT","name":"Negrar","_id":6541509,"coord":{"lon":10.93798,"lat":45.52879}},
{"country":"IT","name":"Mira","_id":6540220,"coord":{"lon":12.13481,"lat":45.435799}},
{"country":"IT","name":"Lissone","_id":6540584,"coord":{"lon":9.24655,"lat":45.615582}},
{"country":"IT","name":"Lastra a Signa","_id":6538560,"coord":{"lon":11.10282,"lat":43.771351}},
{"country":"IT","name":"Imperia","_id":6541484,"coord":{"lon":8.02225,"lat":43.88332}},
{"country":"IT","name":"Jesi","_id":6541474,"coord":{"lon":13.24017,"lat":43.528759}},
{"country":"IT","name":"Giugliano in Campania","_id":6541164,"coord":{"lon":14.19103,"lat":40.92741}},
{"country":"IT","name":"Galatone","_id":6537588,"coord":{"lon":18.070419,"lat":40.142921}},
{"country":"IT","name":"Gaeta","_id":6542094,"coord":{"lon":13.56281,"lat":41.218311}},
{"country":"IT","name":"Frosinone","_id":6541853,"coord":{"lon":13.3401,"lat":41.640018}},
{"country":"IT","name":"Formigine","_id":6538453,"coord":{"lon":10.847,"lat":44.57296}},
{"country":"IT","name":"Fondi","_id":6541136,"coord":{"lon":13.43131,"lat":41.354111}},
{"country":"IT","name":"Fidenza","_id":6540408,"coord":{"lon":10.06668,"lat":44.86396}},
{"country":"IT","name":"Corciano","_id":6536870,"coord":{"lon":12.28736,"lat":43.12904}},
{"country":"IT","name":"Conversano","_id":6540023,"coord":{"lon":17.11479,"lat":40.966228}},
{"country":"IT","name":"Cittadella","_id":6539925,"coord":{"lon":11.7842,"lat":45.650002}},
{"country":"IT","name":"Bra","_id":6538144,"coord":{"lon":7.85563,"lat":44.703041}},
{"country":"IT","name":"Benevento","_id":6542123,"coord":{"lon":14.78614,"lat":41.12952}},
{"country":"IT","name":"Bareggio","_id":6542012,"coord":{"lon":8.99994,"lat":45.487671}},
{"country":"IT","name":"Arese","_id":6541492,"coord":{"lon":9.07654,"lat":45.552269}},
{"country":"IT","name":"Aprilia","_id":6541135,"coord":{"lon":12.65009,"lat":41.589512}},
{"country":"IT","name":"Anagni","_id":6540534,"coord":{"lon":13.15269,"lat":41.74472}},
{"country":"IT","name":"Spinea","_id":6536221,"coord":{"lon":12.16251,"lat":45.488701}},
{"country":"IT","name":"Volla","_id":6542340,"coord":{"lon":14.34293,"lat":40.87841}},
{"country":"JM","name":"Old Harbour","_id":3489227,"coord":{"lon":-77.108978,"lat":17.941441}},
{"country":"JM","name":"New Kingston","_id":3489297,"coord":{"lon":-76.783188,"lat":18.007469}},
{"country":"JP","name":"Kimiidera","_id":1859472,"coord":{"lon":135.199997,"lat":34.183331}},
{"country":"MZ","name":"Mocimboa","_id":1037370,"coord":{"lon":40.349998,"lat":-11.31667}},
{"country":"NL","name":"Gemeente Noordwijkerhout","_id":2749810,"coord":{"lon":4.48333,"lat":52.25}},
{"country":"NL","name":"Gemeente Leusden","_id":2751688,"coord":{"lon":5.41667,"lat":52.133331}},
{"country":"NL","name":"Gemeente Huizen","_id":2753467,"coord":{"lon":5.23333,"lat":52.283329}},
{"country":"NL","name":"Gemeente Hoogeveen","_id":2753718,"coord":{"lon":6.58333,"lat":52.683331}},
{"country":"NL","name":"Gemeente Heemskerk","_id":2754696,"coord":{"lon":4.65386,"lat":52.509449}},
{"country":"NL","name":"Gemeente Alphen aan den Rijn","_id":2759874,"coord":{"lon":4.65,"lat":52.133331}},
{"country":"NO","name":"Horten","_id":3160606,"coord":{"lon":10.48527,"lat":59.41547}},
{"country":"NO","name":"Haugesund","_id":6453374,"coord":{"lon":5.27551,"lat":59.410149}},
{"country":"NO","name":"Gjøvik","_id":6453355,"coord":{"lon":10.69287,"lat":60.79472}},
{"country":"NO","name":"Ålesund","_id":6453341,"coord":{"lon":6.15424,"lat":62.471241}},
{"country":"NP","name":"Tulsipur","_id":1282635,"coord":{"lon":82.297256,"lat":28.130989}},
{"country":"NZ","name":"Cambridge","_id":6240770,"coord":{"lon":175.440201,"lat":-37.87822}},
{"country":"OM","name":"Bidbid","_id":288721,"coord":{"lon":58.1283,"lat":23.40786}},
{"country":"OM","name":"Bawshar","_id":288764,"coord":{"lon":58.398899,"lat":23.55563}},
{"country":"OM","name":"Badiyah","_id":288902,"coord":{"lon":58.799999,"lat":22.450001}},
{"country":"OM","name":"As Suwayq","_id":288955,"coord":{"lon":57.43861,"lat":23.84944}},
{"country":"PE","name":"Uchiza","_id":3691094,"coord":{"lon":-76.463333,"lat":-8.45917}},
{"country":"PL","name":"Włocławek","_id":7530966,"coord":{"lon":19.060829,"lat":52.665379}},
{"country":"PL","name":"Świdwin","_id":7531696,"coord":{"lon":15.7973,"lat":53.7742}},
{"country":"PL","name":"Jastrzębie-Zdrój","_id":7530961,"coord":{"lon":18.600531,"lat":49.960629}},
{"country":"PL","name":"Bełchatów","_id":7532652,"coord":{"lon":19.3626,"lat":51.3545}},
{"country":"PR","name":"Aguadilla","_id":4562506,"coord":{"lon":-67.154068,"lat":18.42745}},
{"country":"PT","name":"Vila Franca de Xira","_id":8014434,"coord":{"lon":-8.96442,"lat":38.912411}},
{"country":"PT","name":"Ramada","_id":8012598,"coord":{"lon":-9.19464,"lat":38.806961}},
{"country":"PT","name":"Almada","_id":8013113,"coord":{"lon":-9.16249,"lat":38.678871}},
{"country":"PT","name":"Gueifães","_id":8012746,"coord":{"lon":-8.6052,"lat":41.215248}},
{"country":"RU","name":"Safonovo","_id":499452,"coord":{"lon":33.216671,"lat":55.150002}},
{"country":"SE","name":"Lillsjönäs","_id":2695079,"coord":{"lon":17.950001,"lat":59.333328}},
{"country":"SL","name":"Koidu","_id":2407660,"coord":{"lon":-10.83333,"lat":8.41667}},
{"country":"TH","name":"Prakhon Chai","_id":1607257,"coord":{"lon":103.120811,"lat":14.60592}},
{"country":"TH","name":"Changwat Lop Buri","_id":1609031,"coord":{"lon":100.75,"lat":14.93333}},
{"country":"TR","name":"Kocaali","_id":742902,"coord":{"lon":30.852779,"lat":41.05336}},
{"country":"TZ","name":"Vwawa","_id":148942,"coord":{"lon":32.933331,"lat":-9.11667}},
{"country":"US","name":"Coffee County","_id":4056099,"coord":{"lon":-86.000221,"lat":31.41683}},
{"country":"US","name":"Clay County","_id":4151245,"coord":{"lon":-81.833153,"lat":29.99968}},
{"country":"US","name":"Flagler County","_id":4155535,"coord":{"lon":-81.291451,"lat":29.45859}},
{"country":"US","name":"Hernando County","_id":4158449,"coord":{"lon":-82.458153,"lat":28.541941}},
{"country":"US","name":"Sumter County","_id":4174301,"coord":{"lon":-82.083138,"lat":28.708599}},
{"country":"US","name":"Fulton County","_id":4196508,"coord":{"lon":-84.449928,"lat":33.766769}},
{"country":"US","name":"DeKalb County","_id":4191014,"coord":{"lon":-84.233253,"lat":33.750381}},
{"country":"US","name":"Clark County","_id":4255818,"coord":{"lon":-85.761353,"lat":38.483398}},
{"country":"US","name":"Sylvania","_id":4310411,"coord":{"lon":-85.87413,"lat":38.157009}},
{"country":"US","name":"Clark County","_id":4287837,"coord":{"lon":-84.266602,"lat":37.98341}},
{"country":"US","name":"City of Baltimore","_id":4347820,"coord":{"lon":-76.61219,"lat":39.290379}},
{"country":"US","name":"Cashell Estates","_id":7198188,"coord":{"lon":-77.138702,"lat":39.137199}},
{"country":"US","name":"Wakely Terrace","_id":4372589,"coord":{"lon":-76.334961,"lat":39.525661}},
{"country":"US","name":"Saint Charles County","_id":4406835,"coord":{"lon":-90.733459,"lat":38.76672}},
{"country":"US","name":"City of Saint Louis","_id":4407084,"coord":{"lon":-90.197891,"lat":38.62727}},
{"country":"US","name":"Coahoma County","_id":4422178,"coord":{"lon":-90.567879,"lat":34.217892}},
{"country":"US","name":"Jackson County","_id":4431425,"coord":{"lon":-88.6278,"lat":30.42325}},
{"country":"US","name":"Nash County","_id":4481511,"coord":{"lon":-77.96637,"lat":35.96682}},
{"country":"US","name":"Lee County","_id":4475520,"coord":{"lon":-79.183083,"lat":35.46682}},
{"country":"US","name":"Warren County","_id":4527624,"coord":{"lon":-84.166603,"lat":39.433392}},
{"country":"US","name":"Creek County","_id":4534444,"coord":{"lon":-96.400291,"lat":35.900082}},
{"country":"US","name":"Richland County","_id":4592843,"coord":{"lon":-80.916481,"lat":34.016819}},
{"country":"US","name":"Taylor County","_id":4735729,"coord":{"lon":-99.833702,"lat":32.300129}},
{"country":"US","name":"Hidalgo County","_id":4697444,"coord":{"lon":-98.200287,"lat":26.333679}},
{"country":"US","name":"Washington County","_id":4740157,"coord":{"lon":-96.400238,"lat":30.233549}},
{"country":"US","name":"Walker County","_id":4739690,"coord":{"lon":-95.566887,"lat":30.73353}},
{"country":"US","name":"Kerr County","_id":4703071,"coord":{"lon":-99.300323,"lat":30.050211}},
{"country":"US","name":"City of Alexandria","_id":4744106,"coord":{"lon":-77.046921,"lat":38.80484}},
{"country":"US","name":"City of Bristol","_id":4749005,"coord":{"lon":-82.188469,"lat":36.596489}},
{"country":"US","name":"City of Charlottesville","_id":4752046,"coord":{"lon":-78.476677,"lat":38.029308}},
{"country":"US","name":"City of Chesapeake","_id":4752215,"coord":{"lon":-76.312157,"lat":36.687649}},
{"country":"US","name":"City of Colonial Heights","_id":4753684,"coord":{"lon":-77.410263,"lat":37.244041}},
{"country":"US","name":"City of Danville","_id":4755298,"coord":{"lon":-79.39502,"lat":36.585972}},
{"country":"US","name":"City of Fairfax","_id":4758109,"coord":{"lon":-77.306374,"lat":38.846218}},
{"country":"US","name":"City of Fredericksburg","_id":4760084,"coord":{"lon":-77.460541,"lat":38.303181}},
{"country":"US","name":"City of Harrisonburg","_id":4763237,"coord":{"lon":-78.868919,"lat":38.44957}},
{"country":"US","name":"City of Hopewell","_id":4764849,"coord":{"lon":-77.287201,"lat":37.304321}},
{"country":"US","name":"City of Lynchburg","_id":4771099,"coord":{"lon":-79.14225,"lat":37.41375}},
{"country":"US","name":"City of Manassas","_id":4771426,"coord":{"lon":-77.475273,"lat":38.75095}},
{"country":"US","name":"City of Newport News","_id":4776037,"coord":{"lon":-76.508011,"lat":37.062649}},
{"country":"US","name":"City of Norfolk","_id":4776242,"coord":{"lon":-76.261879,"lat":36.891258}},
{"country":"US","name":"City of Petersburg","_id":4778642,"coord":{"lon":-77.401932,"lat":37.227928}},
{"country":"US","name":"City of Portsmouth","_id":4780019,"coord":{"lon":-76.354668,"lat":36.85487}},
{"country":"US","name":"City of Radford","_id":4780851,"coord":{"lon":-80.576447,"lat":37.13179}},
{"country":"US","name":"City of Richmond","_id":4781756,"coord":{"lon":-77.460258,"lat":37.553761}},
{"country":"US","name":"City of Roanoke","_id":4782241,"coord":{"lon":-79.941429,"lat":37.270969}},
{"country":"US","name":"City of Salem","_id":4784205,"coord":{"lon":-80.054764,"lat":37.293468}},
{"country":"US","name":"City of Suffolk","_id":4788160,"coord":{"lon":-76.608009,"lat":36.708481}},
{"country":"US","name":"City of Staunton","_id":4787467,"coord":{"lon":-79.071701,"lat":38.149578}},
{"country":"US","name":"City of Waynesboro","_id":4792534,"coord":{"lon":-78.889473,"lat":38.06847}},
{"country":"US","name":"City of Winchester","_id":4794134,"coord":{"lon":-78.16333,"lat":39.185661}},
{"country":"US","name":"Cuyahoga County","_id":5151606,"coord":{"lon":-81.666519,"lat":41.433392}},
{"country":"US","name":"Lee County","_id":4899519,"coord":{"lon":-89.283432,"lat":41.750591}},
{"country":"US","name":"Knox County","_id":4898722,"coord":{"lon":-90.200119,"lat":40.933369}},
{"country":"US","name":"Ottawa County","_id":5004681,"coord":{"lon":-86.000603,"lat":42.95002}},
{"country":"US","name":"Bay County","_id":4985190,"coord":{"lon":-84.016647,"lat":43.73336}},
{"country":"US","name":"Macomb County","_id":5000477,"coord":{"lon":-82.949928,"lat":42.700031}},
{"country":"US","name":"Ingham County","_id":4997130,"coord":{"lon":-84.383301,"lat":42.60004}},
{"country":"US","name":"Shiawassee County","_id":5009706,"coord":{"lon":-84.149971,"lat":42.950031}},
{"country":"US","name":"Nassau County","_id":5128316,"coord":{"lon":-73.582901,"lat":40.75066}},
{"country":"US","name":"Kings County","_id":6941775,"coord":{"lon":-73.949577,"lat":40.650101}},
{"country":"US","name":"Cortland County","_id":5113792,"coord":{"lon":-76.082977,"lat":42.600071}},
{"country":"US","name":"City Line","_id":5112738,"coord":{"lon":-73.887077,"lat":40.676208}},
{"country":"US","name":"Fulton County","_id":5118116,"coord":{"lon":-74.449577,"lat":43.116741}},
{"country":"US","name":"Jamestown","_id":5122534,"coord":{"lon":-79.235329,"lat":42.097}},
{"country":"US","name":"Queensbridge Houses","_id":6332485,"coord":{"lon":-73.945,"lat":40.75528}},
{"country":"US","name":"Carnegie Hill","_id":7250946,"coord":{"lon":-73.95472,"lat":40.783329}},
{"country":"US","name":"Rensselaer County","_id":5133668,"coord":{"lon":-73.482887,"lat":42.716751}},
{"country":"US","name":"Mahoning County","_id":5161640,"coord":{"lon":-80.766472,"lat":41.03339}},
{"country":"US","name":"Delaware County","_id":5151896,"coord":{"lon":-83.000183,"lat":40.266731}},
{"country":"US","name":"Allen County","_id":5145576,"coord":{"lon":-84.083282,"lat":40.76672}},
{"country":"US","name":"Erie County","_id":5153362,"coord":{"lon":-82.599899,"lat":41.350052}},
{"country":"US","name":"Bristol County","_id":5221078,"coord":{"lon":-71.271721,"lat":41.71677}},
{"country":"US","name":"Santa Cruz County","_id":5393068,"coord":{"lon":-122.051071,"lat":37.066608}},
{"country":"US","name":"San Francisco County","_id":5391997,"coord":{"lon":-122.45108,"lat":37.766602}},
{"country":"US","name":"Grand Junction","_id":5423573,"coord":{"lon":-108.550652,"lat":39.063869}},
{"country":"US","name":"Maverick County","_id":5525886,"coord":{"lon":-100.350349,"lat":28.76692}},
{"country":"US","name":"Gray County","_id":5522430,"coord":{"lon":-100.802002,"lat":35.416698}},
{"country":"UZ","name":"Shofirkon","_id":1512838,"coord":{"lon":64.501389,"lat":40.119999}},
{"country":"UZ","name":"Qushkupir","_id":1512978,"coord":{"lon":60.345558,"lat":41.535}},
{"country":"UZ","name":"Parkent","_id":1513017,"coord":{"lon":69.676392,"lat":41.294441}},
{"country":"UZ","name":"Pop","_id":1513023,"coord":{"lon":71.108887,"lat":40.873611}},
{"country":"UZ","name":"Paxtakor","_id":1513038,"coord":{"lon":67.954437,"lat":40.315281}},
{"country":"UZ","name":"Novyy Turtkul","_id":1513092,"coord":{"lon":61.01667,"lat":41.549999}},
{"country":"UZ","name":"Manghit","_id":1513245,"coord":{"lon":60.059719,"lat":42.115559}},
{"country":"UZ","name":"Haqqulobod","_id":1513655,"coord":{"lon":72.116669,"lat":40.916672}},
{"country":"UZ","name":"Iskandar","_id":1513900,"coord":{"lon":69.700829,"lat":41.55389}},
{"country":"UZ","name":"Hazorasp","_id":1513957,"coord":{"lon":61.074169,"lat":41.319439}},
{"country":"UZ","name":"Chinoz","_id":1514215,"coord":{"lon":68.769722,"lat":40.93639}},
{"country":"UZ","name":"Buka","_id":1514330,"coord":{"lon":69.198608,"lat":40.810829}},
{"country":"UZ","name":"Beruniy","_id":1514387,"coord":{"lon":60.752499,"lat":41.691109}},
{"country":"UZ","name":"Bektemir","_id":1514396,"coord":{"lon":69.334167,"lat":41.209721}},
{"country":"UZ","name":"Quva","_id":1526979,"coord":{"lon":72.072922,"lat":40.522041}},
{"country":"VC","name":"Redemption","_id":3748724,"coord":{"lon":-61.229439,"lat":13.16444}},
{"country":"VE","name":"Municipio Anaco","_id":3649281,"coord":{"lon":-64.466667,"lat":9.33333}},
{"country":"VE","name":"Anaco","_id":3486270,"coord":{"lon":-64.472778,"lat":9.43889}},
{"country":"VE","name":"Municipio Zamora","_id":3625123,"coord":{"lon":-67.5,"lat":10.06667}},
{"country":"VE","name":"Municipio Valencia","_id":3625547,"coord":{"lon":-68.083328,"lat":10.08333}},
{"country":"VE","name":"Municipio Santiago Mariño","_id":8129205,"coord":{"lon":-67.472878,"lat":10.22388}},
{"country":"VE","name":"Municipio San Felipe","_id":3628416,"coord":{"lon":-68.633331,"lat":10.5}},
{"country":"VE","name":"Municipio Colón","_id":3645361,"coord":{"lon":-72.083328,"lat":9}},
{"country":"VE","name":"Municipio San Carlos","_id":3628494,"coord":{"lon":-68.583328,"lat":9.58333}},
{"country":"VE","name":"Municipio Los Salias","_id":8129204,"coord":{"lon":-66.95179,"lat":10.38854}},
{"country":"VE","name":"Municipio Sucre","_id":8129175,"coord":{"lon":-66.801552,"lat":10.47226}},
{"country":"VE","name":"Municipio Libertador","_id":8129237,"coord":{"lon":-67.541939,"lat":10.17389}},
{"country":"VE","name":"Palo Negro","_id":3630932,"coord":{"lon":-67.541939,"lat":10.17389}},
{"country":"VE","name":"Municipio Nirgua","_id":3631506,"coord":{"lon":-68.666672,"lat":10.08333}},
{"country":"VE","name":"Mucumpiz","_id":3631741,"coord":{"lon":-71.133331,"lat":8.41667}},
{"country":"VE","name":"Municipio Juan José Mora","_id":8129172,"coord":{"lon":-68.200279,"lat":10.48889}},
{"country":"VE","name":"Los Rastrojos","_id":3633677,"coord":{"lon":-69.241661,"lat":10.02588}},
{"country":"VE","name":"Municipio José Félix Ribas","_id":8129202,"coord":{"lon":-67.33017,"lat":10.21844}},
{"country":"VE","name":"Municipio Santos Michelena","_id":8129149,"coord":{"lon":-67.184723,"lat":10.25237}},
{"country":"VE","name":"Las Tejerias","_id":3635325,"coord":{"lon":-67.184723,"lat":10.25237}},
{"country":"VE","name":"Lagunillas","_id":3637623,"coord":{"lon":-71.25946,"lat":10.13008}},
{"country":"VE","name":"Municipio Vargas","_id":8129268,"coord":{"lon":-66.934601,"lat":10.59901}},
{"country":"VE","name":"Municipio Marcano","_id":8131449,"coord":{"lon":-63.964119,"lat":11.08307}},
{"country":"VE","name":"Municipio Valdez","_id":8131484,"coord":{"lon":-62.300289,"lat":10.57945}},
{"country":"VE","name":"Municipio Zamora","_id":3625122,"coord":{"lon":-66.5,"lat":10.5}},
{"country":"VE","name":"Municipio Plaza","_id":3630003,"coord":{"lon":-66.666672,"lat":10.5}},
{"country":"VE","name":"Municipio Mario Briceño Iragorry","_id":8131393,"coord":{"lon":-67.633614,"lat":10.30028}},
{"country":"VE","name":"El Limon","_id":3642833,"coord":{"lon":-67.632118,"lat":10.30589}},
{"country":"VE","name":"Municipio El Hatillo","_id":8129201,"coord":{"lon":-66.816101,"lat":10.42994}},
{"country":"VE","name":"Municipio Chacao","_id":8129178,"coord":{"lon":-66.85347,"lat":10.49598}},
{"country":"VE","name":"Tacarigua","_id":3646062,"coord":{"lon":-67.919823,"lat":10.08621}},
{"country":"VE","name":"Municipio Baruta","_id":8131442,"coord":{"lon":-66.875412,"lat":10.43346}},
{"country":"VE","name":"Municipio José Tadeo Monagas","_id":8129200,"coord":{"lon":-66.381393,"lat":9.86005}},
{"country":"VE","name":"Municipio García de Hevia","_id":3640668,"coord":{"lon":-72.25,"lat":8.33333}},
{"country":"VN","name":"Tỉnh Nghệ An","_id":1559969,"coord":{"lon":104.833328,"lat":19.33333}},
{"country":"VN","name":"Tỉnh Phú Thọ","_id":1905577,"coord":{"lon":105.166672,"lat":21.33333}},
{"country":"VN","name":"Viet Tri","_id":1562820,"coord":{"lon":105.430832,"lat":21.301941}},
{"country":"VN","name":"Tỉnh Quảng Ninh","_id":1568758,"coord":{"lon":107.333328,"lat":21.25}},
{"country":"VN","name":"Tỉnh Phú Yên","_id":1569805,"coord":{"lon":109.166672,"lat":13.16667}},
{"country":"CA","name":"Thornhill","_id":6165683,"coord":{"lon":-79.416298,"lat":43.80011}},
{"country":"CA","name":"Port Hope","_id":6111881,"coord":{"lon":-78.292992,"lat":43.951172}},
{"country":"MX","name":"Estado de Jalisco","_id":4004156,"coord":{"lon":-103.666672,"lat":20.33333}},
{"country":"MX","name":"Tabasco","_id":3982729,"coord":{"lon":-102.916672,"lat":21.866671}},
{"country":"DE","name":"Holdereggen","_id":2900752,"coord":{"lon":9.68333,"lat":47.549999}}
]
